City ID,City,Lat,Lng,Max Temp,Humidity,Cloudiness,Wind Speed,Country,Date
0,pevek,69.7008,170.3133,0.57,90,100,3.36,RU,1659944642
1,zhigansk,66.7697,123.3711,16.06,63,100,5.2,RU,1659944643
2,hermanus,-34.4187,19.2345,13.78,75,40,1.11,ZA,1659944645
3,qaanaaq,77.484,-69.3632,1.97,61,94,2.6,GL,1659944645
4,ushuaia,-54.8,-68.3,0.81,64,20,0.51,AR,1659944646
5,hilo,19.7297,-155.09,25.71,89,40,2.57,US,1659944647
6,cape town,-33.9258,18.4232,16.18,78,40,4.63,ZA,1659944553
7,mendeleyevsk,55.9082,52.2905,28.58,45,45,0.45,RU,1659944649
8,mayumba,-3.432,10.6554,21.9,78,99,0.94,GA,1659944650
9,anito,12.4497,125.2886,28.93,70,84,1.61,PH,1659944650
10,tuktoyaktuk,69.4541,-133.0374,8.81,72,99,6.21,CA,1659944651
11,qaqortoq,60.7167,-46.0333,7.17,73,85,1.27,GL,1659944652
12,atuona,-9.8,-139.0333,25.24,67,5,7.16,PF,1659944653
13,kahului,20.8947,-156.47,27.01,66,0,6.17,US,1659944654
14,kirs,59.3388,52.2447,28.09,45,24,2.5,RU,1659944655
15,beringovskiy,63.05,179.3167,9.22,58,52,6.52,RU,1659944656
16,new norfolk,-42.7826,147.0587,8.17,72,7,0.41,AU,1659944656
17,leningradskiy,69.3833,178.4167,0.45,94,96,6.59,RU,1659944657
18,busselton,-33.65,115.3333,12.05,67,84,9.2,AU,1659944658
19,punta arenas,-53.15,-70.9167,0.06,93,75,3.09,CL,1659944660
20,pacific grove,36.6177,-121.9166,17.23,87,0,3.09,US,1659944661
21,barrow,71.2906,-156.7887,4.14,82,100,5.73,US,1659944662
22,junqueiropolis,-21.5147,-51.4336,17.17,89,100,2.65,BR,1659944663
23,adre,13.4667,22.2,23.45,74,100,1.75,TD,1659944664
24,ribeira grande,38.5167,-28.7,23.22,83,40,5.14,PT,1659944665
25,bereda,43.2686,-7.5406,21.9,81,11,1.36,ES,1659944665
26,dennery,13.8996,-60.8879,27.05,83,20,9.26,LC,1659944666
27,paso de los toros,-32.8167,-56.5167,4.82,95,4,3.56,UY,1659944667
28,albany,42.6001,-73.9662,23.55,88,18,1.21,US,1659944411
29,tura,25.5198,90.2201,30.89,70,79,2.21,IN,1659944670
30,half moon bay,37.4636,-122.4286,17.95,87,100,6.69,US,1659944670
31,mataura,-46.1927,168.8643,1.93,69,0,4.1,NZ,1659944671
32,chokurdakh,70.6333,147.9167,19.43,31,100,6.04,RU,1659944672
33,ponta do sol,32.6667,-17.1,23.34,80,7,1.67,PT,1659944673
34,bredasdorp,-34.5322,20.0403,15.49,76,99,0.98,ZA,1659944674
35,lebu,-37.6167,-73.65,6.94,87,78,4.2,CL,1659944675
36,puerto ayora,-0.7393,-90.3518,19.19,98,73,4.47,EC,1659944397
37,thompson,55.7435,-97.8558,16.09,100,75,1.03,CA,1659944677
38,saint george,37.1041,-113.5841,31.33,26,0,3.09,US,1659944468
39,hobart,-42.8794,147.3294,8.92,78,20,2.06,AU,1659944418
40,borogontsy,62.6683,131.1683,20.43,57,82,2.91,RU,1659944679
41,san patricio,28.017,-97.5169,31.02,76,43,3.28,US,1659944680
42,viedma,-40.8135,-62.9967,4.17,86,95,2.29,AR,1659944682
43,arsk,56.0915,49.8778,26.88,47,90,1.2,RU,1659944683
44,saldanha,-33.0117,17.9442,12.03,71,4,5.39,ZA,1659944684
45,bambous virieux,-20.3428,57.7575,24.56,69,40,4.63,MU,1659944685
46,havre-saint-pierre,50.2334,-63.5986,11.2,82,0,4.63,CA,1659944686
47,jiazi,22.8779,116.067,30.04,72,56,7.46,CN,1659944687
48,tasiilaq,65.6145,-37.6368,5.09,97,100,0.78,GL,1659944688
49,butaritari,3.0707,172.7902,27.35,78,28,5.08,KI,1659944689
50,ghanzi,-21.5667,21.7833,20.67,18,35,6.52,BW,1659944690
51,sur,22.5667,59.5289,35.13,46,47,2.82,OM,1659944691
52,rivera,-30.9053,-55.5508,9.11,91,100,4.19,UY,1659944517
53,dikson,73.5069,80.5464,7.24,100,100,4.77,RU,1659944693
54,kavaratti,10.5669,72.642,27.06,83,98,10.6,IN,1659944694
55,gwanda,-20.9333,29,25.52,15,0,3.28,ZW,1659944695
56,saint-philippe,-21.3585,55.7679,24.77,73,4,3.83,RE,1659944696
57,castro,-24.7911,-50.0119,13.85,97,100,2.26,BR,1659944697
58,kirovskiy,45.0917,133.5136,25.65,66,0,2.42,RU,1659944698
59,volterra,43.4003,10.86,28.01,48,0,3.19,IT,1659944699
60,tuatapere,-46.1333,167.6833,1.47,74,8,3.69,NZ,1659944700
61,junction city,39.0286,-96.8314,23.7,85,0,3.09,US,1659944200
62,georgetown,5.4112,100.3354,31.97,70,20,6.69,MY,1659944702
63,hofn,64.2539,-15.2082,10.52,84,100,4.45,IS,1659944703
64,nyurba,63.2842,118.3319,19.16,52,100,1.4,RU,1659944704
65,miles city,46.4083,-105.8406,18.54,68,0,4.63,US,1659944705
66,tak,16.5833,98.8333,23.84,98,100,1,TH,1659944706
67,ancud,-41.8697,-73.8203,3.16,89,1,1.93,CL,1659944707
68,provideniya,64.3833,-173.3,4.36,58,86,6.47,RU,1659944708
69,port elizabeth,-33.918,25.5701,16.29,94,0,1.03,ZA,1659944609
70,yellowknife,62.456,-114.3525,14.29,100,75,2.06,CA,1659944711
71,geneva,41.8875,-88.3054,24.92,93,0,2.57,US,1659944712
72,pangody,65.85,74.4859,29.84,36,41,5.37,RU,1659944713
73,rikitea,-23.1203,-134.9692,21.68,84,100,16.08,PF,1659944714
74,nikolskoye,59.7035,30.7861,21.6,53,100,2.8,RU,1659944715
75,airai,-8.9266,125.4092,20.45,60,77,2.05,TL,1659944716
76,kapaa,22.0752,-159.319,26.18,85,75,7.2,US,1659944717
77,gat,31.61,34.7642,30.43,11,0,3.25,IL,1659944718
78,abapo,-18.8333,-63.4667,16.31,71,99,0.9,BO,1659944719
79,bluff,-46.6,168.3333,2.11,64,12,8.85,NZ,1659944720
80,upernavik,72.7868,-56.1549,4.98,81,100,0.63,GL,1659944721
81,kaitangata,-46.2817,169.8464,3.09,71,82,4.39,NZ,1659944722
82,nuuk,64.1835,-51.7216,4.34,93,100,2.57,GL,1659944723
83,piacabucu,-10.4056,-36.4344,23.2,63,93,3.65,BR,1659944724
84,priyutnoye,46.1011,43.5072,32.87,18,0,6.55,RU,1659944725
85,sovetskiy,61.3614,63.5842,31,32,9,1.64,RU,1659944726
86,rosario,-32.9468,-60.6393,7.95,88,100,5.14,AR,1659944493
87,saint-pie,45.5001,-72.8991,18.4,92,100,2.57,CA,1659944728
88,saskylakh,71.9167,114.0833,16.63,50,100,3.34,RU,1659944729
89,almetyevsk,54.9044,52.3154,26.86,52,100,1.85,RU,1659944730
90,port hardy,50.6996,-127.4199,15.1,82,0,2.06,CA,1659944732
91,port alfred,-33.5906,26.891,14.54,99,97,1.34,ZA,1659944733
92,arraial do cabo,-22.9661,-42.0278,21.07,90,100,1.96,BR,1659944734
93,nador,35.174,-2.9287,27.14,69,20,2.06,MA,1659944735
94,mar del plata,-38.0023,-57.5575,9.49,80,100,1.34,AR,1659944736
95,leh,34.1667,77.5833,22.93,35,87,2.93,IN,1659944737
96,hudson bay,52.85,-102.3842,14.13,84,1,2.4,CA,1659944738
97,vaini,-21.2,-175.2,24.09,94,20,3.09,TO,1659944740
98,ponta pora,-22.5361,-55.7256,16.29,97,100,1.9,BR,1659944746
99,erie,42.7667,-78.6664,25.56,84,73,0.89,US,1659944632
100,coihaique,-45.5752,-72.0662,1.34,93,40,0.51,CL,1659944522
101,sabha,27.0377,14.4283,32.91,21,0,5.88,LY,1659944749
102,east london,-33.0153,27.9116,15.52,94,75,5.14,ZA,1659944749
103,charyshskoye,51.3978,83.5598,25.95,40,81,2.07,RU,1659944751
104,loa janan,-0.583,117.095,29.73,62,83,2.61,ID,1659944752
105,najran,17.4924,44.1277,34.36,26,55,3.94,SA,1659944753
106,nemuro,43.3236,145.575,19.35,99,100,8.2,JP,1659944754
107,port blair,11.6667,92.75,27.74,82,100,10.42,IN,1659944755
108,hammerfest,70.6634,23.6821,10.25,87,75,5.14,NO,1659944756
109,two hills,53.7169,-111.7518,17.27,94,100,3.09,CA,1659944757
110,bubaque,11.2833,-15.8333,26.54,81,100,3.16,GW,1659944758
111,puerto del rosario,28.5004,-13.8627,21.86,83,40,10.29,ES,1659944759
112,muisne,0.6,-80.0333,23.12,89,100,3.13,EC,1659944761
113,college,64.8569,-147.8028,11.99,81,75,1.54,US,1659944762
114,phan thiet,10.9333,108.1,27.12,72,100,7.68,VN,1659944694
115,biak,-0.9131,122.8766,25.75,84,100,2.67,ID,1659944765
116,turukhansk,65.8167,87.9833,19.71,65,100,1.66,RU,1659944766
117,tombouctou,20,-3,36.13,13,34,6.17,ML,1659944768
118,torbay,47.6666,-52.7314,20.88,91,40,6.69,CA,1659944769
119,lahat,-3.8,103.5333,32.49,47,36,2.25,ID,1659944769
120,corat,40.5725,49.7064,27.05,55,70,7.79,AZ,1659944770
121,iskandar,41.5539,69.7008,34.31,17,34,5.39,UZ,1659944772
122,carnarvon,-24.8667,113.6333,19.78,64,0,6.65,AU,1659944773
123,payo,-3.7508,103.6372,32.64,45,31,2.11,ID,1659944774
124,roald,62.5833,6.1333,18.42,82,75,4.63,NO,1659944775
125,cabo san lucas,22.8909,-109.9124,29.17,77,100,1.45,MX,1659944516
126,coquimbo,-29.9533,-71.3436,9.85,76,0,2.06,CL,1659944777
127,puerto penasco,31.3167,-113.5333,29.95,81,99,2.24,MX,1659944778
128,bathsheba,13.2167,-59.5167,27.34,91,20,7.2,BB,1659944779
129,jacareacanga,-6.2222,-57.7528,23.61,76,52,0.97,BR,1659944781
130,ullo,47.3877,19.3553,24.53,64,75,0.51,HU,1659944782
131,magadan,59.5667,150.8,16.41,70,100,2.37,RU,1659944783
132,kieta,-6.2167,155.6333,26.59,82,97,0.56,PG,1659944784
133,meulaboh,4.1363,96.1285,29.55,63,74,3.01,ID,1659944785
134,mahebourg,-20.4081,57.7,24.58,69,40,4.63,MU,1659944786
135,omboue,-1.5746,9.2618,23.17,73,100,2.11,GA,1659944787
136,jamestown,42.097,-79.2353,23.77,73,0,3.6,US,1659944788
137,khash,28.2211,61.2158,34.68,9,0,4.13,IR,1659944789
138,victoria,22.2855,114.1577,32.03,83,77,4.92,HK,1659944706
139,grand gaube,-20.0064,57.6608,24.65,61,3,3.58,MU,1659944791
140,kamenka,51.3223,42.7678,31.16,25,7,2.97,RU,1659944792
141,kjopsvik,68.097,16.3742,12.32,82,100,1.47,NO,1659944793
142,pangnirtung,66.1451,-65.7125,5.51,90,92,1.08,CA,1659944795
143,tres arroyos,-38.3739,-60.2798,0.68,92,16,1.67,AR,1659944796
144,salalah,17.0151,54.0924,25.05,94,100,4.12,OM,1659944797
145,cananeia,-25.0147,-47.9267,17.69,95,100,1.96,BR,1659944798
146,sorland,67.667,12.6934,11.92,74,92,3.31,NO,1659944799
147,barreirinhas,-2.7469,-42.8264,23.29,93,5,3.13,BR,1659944800
148,cockburn town,21.4612,-71.1419,27.55,86,100,9.92,TC,1659944801
149,asyut,27.181,31.1837,33.1,24,1,4.25,EG,1659944802
150,zheleznodorozhnyy,55.7503,38.0042,22.34,75,100,1.63,RU,1659944803
151,bang saphan,11.2126,99.5117,25.24,86,100,3.12,TH,1659944804
152,port hedland,-20.3167,118.5667,28.03,16,1,5.66,AU,1659944805
153,hasaki,35.7333,140.8333,32.38,84,100,9.74,JP,1659944806
154,dauphin,51.1494,-100.0502,20.08,68,100,5.14,CA,1659944807
155,iqaluit,63.7506,-68.5145,4.85,86,75,1.03,CA,1659944809
156,batagay-alyta,67.8006,130.4114,16.59,66,98,2.5,RU,1659944811
157,chimbote,-9.0853,-78.5783,16.1,86,99,3.6,PE,1659944684
158,sarana,56.4773,57.7259,28.75,43,42,1.97,RU,1659944812
159,port lincoln,-34.7333,135.8667,12.78,65,0,2.26,AU,1659944813
160,camacha,33.0833,-16.3333,19.68,68,75,4.63,PT,1659944814
161,dwarka,22.2394,68.9678,29.89,77,97,5.01,IN,1659944815
162,henties bay,-22.116,14.2845,15.05,76,18,2.5,NA,1659944816
163,kodiak,57.79,-152.4072,13.73,67,40,2.06,US,1659944817
164,vila franca do campo,37.7167,-25.4333,22.23,82,50,1.13,PT,1659944818
165,praia,14.9215,-23.5087,26.3,89,75,3.6,CV,1659944819
166,nome,64.5011,-165.4064,8.04,93,100,5.66,US,1659944669
167,oistins,13.0667,-59.5333,27.05,83,20,7.2,BB,1659944821
168,derzhavinsk,51.1,66.3167,23.79,38,100,6.53,KZ,1659944822
169,hithadhoo,-0.6,73.0833,27.41,70,100,0.31,MV,1659944824
170,boyolangu,-8.1181,111.8935,26.33,76,88,4.59,ID,1659944825
171,guerrero negro,27.9769,-114.0611,23.48,80,89,1.46,MX,1659944827
172,boden,65.8252,21.6886,14,51,9,1.41,SE,1659944828
173,ribeira brava,32.65,-17.0667,23.34,77,7,1.65,PT,1659944829
174,lafiagi,8.8667,5.4167,23.46,92,100,2.7,NG,1659944830
175,severo-kurilsk,50.6789,156.125,14.46,87,43,0.86,RU,1659944831
176,kyrylivka,46.3759,35.3675,28.53,48,0,6.3,UA,1659944832
177,lagoa,39.05,-27.9833,22.87,80,19,7.55,PT,1659944833
178,grindavik,63.8424,-22.4338,10.26,87,75,9.26,IS,1659944834
179,balkhash,46.844,74.9804,23.34,60,75,3,KZ,1659944835
180,yashan,22.1975,109.9419,31.61,67,56,3.2,CN,1659944836
181,beloha,-25.1667,45.05,24.45,50,11,7.25,MG,1659944837
182,qianguo,45.1171,124.8568,23.77,53,0,5.24,CN,1659944838
183,banda aceh,5.5577,95.3222,30.31,64,100,7.73,ID,1659944840
184,necochea,-38.5473,-58.7368,3.32,87,14,1.62,AR,1659944841
185,sioux lookout,50.1001,-91.917,14.04,88,100,1.54,CA,1659944542
186,chumikan,54.7183,135.315,11.82,97,100,7.18,RU,1659944842
187,dudinka,69.4058,86.1778,26.3,47,10,6.72,RU,1659944844
188,lazaro cardenas,17.9583,-102.2,24.82,89,84,1.66,MX,1659944693
189,longyearbyen,78.2186,15.6401,7.91,87,75,2.06,SJ,1659944846
190,mount gambier,-37.8333,140.7667,9.95,93,100,3.6,AU,1659944846
191,vardo,70.3705,31.1107,9.99,93,75,6.69,NO,1659944848
192,khatanga,71.9667,102.5,14.07,66,100,2.14,RU,1659944848
193,vera cruz,-12.6333,-41.0333,16.76,98,35,1.01,BR,1659944850
194,andenes,69.3143,16.1194,12.18,82,75,4.63,NO,1659944851
195,upata,8.0086,-62.3989,23.44,98,97,1.22,VE,1659944852
196,adjumani,3.3779,31.7909,27.54,60,100,0.52,UG,1659944853
197,jiayuguan,39.8167,98.3,25.06,33,93,5.74,CN,1659944687
198,pinega,64.7001,43.3936,19.77,42,6,4.94,RU,1659944855
199,sobreira,41.5237,-7.8023,26.53,48,0,1.37,PT,1659944857
200,alofi,-19.0595,-169.9187,22.94,94,75,2.57,NU,1659944857
201,kindia,10.0569,-12.8658,21.62,96,81,0.69,GN,1659944859
202,yulara,-25.2406,130.9889,21.72,18,32,6.03,AU,1659944860
203,thinadhoo,0.5333,72.9333,27.55,73,100,1.2,MV,1659944861
204,kachiry,53.0675,76.1036,21.93,51,99,6.17,KZ,1659944862
205,northam,51.0333,-4.2167,20.37,93,0,2.28,GB,1659944863
206,barkly west,-28.5354,24.5215,9.6,51,0,3.5,ZA,1659944864
207,corrente,-3.7367,-43.3394,20.61,99,77,0.8,BR,1659944865
208,mildura,-34.2,142.15,11.49,51,4,2.06,AU,1659944867
209,mutoko,-17.397,32.2268,20.87,26,0,1.39,ZW,1659944869
210,mehamn,71.0357,27.8492,9.97,87,75,6.17,NO,1659944870
211,general roca,-39.0333,-67.5833,4.39,96,100,1.83,AR,1659944871
212,abay,49.6311,72.8539,24.21,34,73,2.88,KZ,1659944872
213,hualmay,-11.0964,-77.6139,15.49,87,85,4.55,PE,1659944873
214,kirakira,-10.4544,161.9205,26.22,81,96,1.44,SB,1659944874
215,hami,42.8,93.45,39.65,9,0,3.52,CN,1659944876
216,narasannapeta,18.4167,84.05,25.51,92,100,8.52,IN,1659944877
217,namikupa,-10.8333,39.6,28.24,35,26,3.32,TZ,1659944878
218,isangel,-19.55,169.2667,24.92,83,5,0.8,VU,1659944879
219,quatre cocos,-20.2078,57.7625,24.49,69,8,4.87,MU,1659944880
220,fortuna,40.5982,-124.1573,16.19,92,100,1.54,US,1659944881
221,vanimo,-2.6741,141.3028,27.18,82,97,2.9,PG,1659944882
222,vicuna,-30.0319,-70.7081,5.85,28,72,2.59,CL,1659944742
223,orahovac,42.3994,20.6547,27.92,38,6,2.99,XK,1659944886
224,huancavelica,-12.7667,-74.9833,2.11,96,99,1.46,PE,1659944888
225,loiza,18.4313,-65.8802,27.99,83,40,5.66,PR,1659944889
226,kongolo,-5.3833,27,30.87,21,0,3.84,CD,1659944891
227,mogadishu,2.0371,45.3438,27.93,69,40,7.72,SO,1659944891
228,san quintin,30.4833,-115.95,22.34,87,47,1.54,MX,1659944893
229,kenora,49.8167,-94.4337,14.54,77,75,2.57,CA,1659944894
230,gaogou,34.0175,119.1886,35.98,57,100,1.55,CN,1659944895
231,urucui,-7.2294,-44.5561,20.9,46,4,2.03,BR,1659944896
232,kruisfontein,-34.0033,24.7314,14.94,82,97,2.35,ZA,1659944897
233,codrington,-38.2667,141.9667,9.73,68,93,2.19,AU,1659944898
234,lavrentiya,65.5833,-171,2.81,72,100,5.26,RU,1659944899
235,faanui,-16.4833,-151.75,24.78,67,86,11.85,PF,1659944900
236,dunedin,-45.8742,170.5036,4.33,67,97,3.58,NZ,1659944859
237,medenychi,49.4305,23.7507,20.16,68,96,3.68,UA,1659944903
238,deputatskiy,69.3,139.9,14.28,80,100,1.37,RU,1659944904
239,broome,42.2506,-75.833,23.21,93,0,3.6,US,1659944905
240,ilulissat,69.2167,-51.1,5.01,93,100,1.03,GL,1659944654
241,hervey bay,-25.2986,152.8535,18.9,55,1,1.79,AU,1659944906
242,stornoway,58.2093,-6.3865,14.4,97,75,7.72,GB,1659944907
243,muriwai beach,-36.8167,174.45,13.01,97,93,2.86,NZ,1659944908
244,yelkhovka,53.8667,50.2832,30.42,42,23,2.38,RU,1659944909
245,carroll,39.5501,-77.0164,25.18,89,0,1.79,US,1659944911
246,melilla,35.2937,-2.9383,27.21,69,20,2.06,ES,1659944777
247,haines junction,60.7522,-137.5108,8.97,71,98,0.51,CA,1659944912
248,luzhou,28.8724,105.4405,37.57,43,24,1.65,CN,1659944913
249,puerto escondido,15.85,-97.0667,25.86,82,100,2.22,MX,1659944914
250,kawalu,-7.3817,108.2082,25.88,67,76,2.78,ID,1659944915
251,avarua,-21.2078,-159.775,23.03,64,40,7.2,CK,1659944916
252,bengkulu,-3.8004,102.2655,29.51,68,40,5.79,ID,1659944917
253,caravelas,-17.7125,-39.2481,20.97,81,3,3.34,BR,1659944919
254,klaksvik,62.2266,-6.589,11.51,89,99,2.78,FO,1659944920
255,flinders,-34.5833,150.8552,12.43,71,7,4.03,AU,1659944921
256,sao filipe,14.8961,-24.4956,26.1,89,86,3.73,CV,1659944922
257,srednekolymsk,67.45,153.6833,22.69,35,34,5.49,RU,1659944922
258,bethel,41.3712,-73.414,26.2,88,0,0,US,1659944923
259,barra do garcas,-15.89,-52.2567,22.89,36,55,1.05,BR,1659944924
260,carahue,-38.7,-73.1667,3.69,98,69,0.19,CL,1659944887
261,zatoka,46.0725,30.4654,27.97,48,3,5.7,UA,1659944926
262,sesheke,-17.4759,24.2968,24.47,17,0,3.09,ZM,1659944927
263,geraldton,-28.7667,114.6,18.23,68,100,7.72,AU,1659944852
264,egvekinot,66.3167,-179.1667,4.23,47,55,4.32,RU,1659944929
265,caconda,-13.7333,15.0667,20.24,22,0,3.94,AO,1659944932
266,sebastian,35.1668,-94.2669,28.31,73,100,1.34,US,1659944933
267,avera,33.194,-82.5271,23.03,87,97,1.92,US,1659944934
268,tiksi,71.6872,128.8694,12.92,82,98,6.24,RU,1659944935
269,vostok,46.4856,135.8833,19.45,91,66,2.08,RU,1659944936
270,jaciara,-15.9653,-54.9683,20.43,91,100,1.95,BR,1659944937
271,chivay,-15.6383,-71.6011,3.79,43,40,0.4,PE,1659944938
272,rangoon,16.8053,96.1561,25.98,100,100,4.63,MM,1659944939
273,lompoc,34.6391,-120.4579,15.56,87,0,9.83,US,1659944940
274,chuy,-33.6971,-53.4616,8.45,86,6,2.77,UY,1659944941
275,mongo,12.1844,18.693,26.16,77,100,2.36,TD,1659944942
276,kimbe,-5.5502,150.1429,27.25,76,82,1.62,PG,1659944943
277,uyemskiy,64.4743,40.8524,19.03,55,75,4,RU,1659944944
278,shunyi,40.125,116.6453,27.97,54,0,3.13,CN,1659944945
279,waipawa,-41.4122,175.5153,7.23,93,100,7.37,NZ,1659944946
280,carballo,43.213,-8.691,23.28,57,10,2.53,ES,1659944947
281,cervo,43.6702,-7.4101,19.98,89,8,3.46,ES,1659944948
282,marawi,7.9986,124.2928,23.81,86,95,2.17,PH,1659944949
283,uray,60.1247,64.7758,29.28,37,11,1.08,RU,1659944950
284,luang prabang,19.8856,102.1347,31.98,66,75,3.09,LA,1659944951
285,sao desiderio,-12.3633,-44.9733,18.46,49,92,1.38,BR,1659944952
286,aklavik,68.2191,-135.0107,9.37,81,26,3.14,CA,1659944953
287,oktyabrskiy,54.4815,53.471,27.89,47,99,2.9,RU,1659944953
288,sampit,-2.5333,112.95,32.34,46,12,2.52,ID,1659944954
289,russell,32.3502,-85.1999,22.99,94,20,0,US,1659944713
290,saint-pierre,-21.3393,55.4781,25.51,66,0,6.17,RE,1659944956
291,cururupu,-1.8283,-44.8683,23.88,88,63,1.99,BR,1659944957
292,shaoyang,27.2315,111.4525,37.46,35,6,0.98,CN,1659944958
293,sinnamary,5.3833,-52.95,24.27,84,53,2.98,GF,1659944959
294,richards bay,-28.783,32.0377,23.06,67,100,5.56,ZA,1659944960
295,clyde river,70.4692,-68.5914,5.13,87,100,3.6,CA,1659944843
296,santarem,-2.4431,-54.7083,24.07,100,0,1.03,BR,1659944961
297,viransehir,37.2353,39.7631,32.21,37,0,3.5,TR,1659944962
298,norman wells,65.282,-126.8329,11.02,93,75,3.09,CA,1659944963
299,dibulla,11.2725,-73.3091,24.35,85,15,3.24,CO,1659944964
300,kaa-khem,51.6833,94.7333,28.72,19,99,3.07,RU,1659944965
301,pindobacu,-10.7417,-40.3608,17.25,94,68,2.32,BR,1659944966
302,sorong,-0.8833,131.25,28.45,75,100,2.27,ID,1659944967
303,nautanwa,27.4333,83.4167,36.31,48,14,4.3,IN,1659944968
304,bentiu,9.2333,29.8333,25.73,84,100,2.95,SS,1659944969
305,gambela,8.25,34.5833,29.94,59,71,0.44,ET,1659944969
306,vestmannaeyjar,63.4427,-20.2734,10.99,83,99,8.32,IS,1659944970
307,hambantota,6.1241,81.1185,32.19,62,40,7.72,LK,1659944971
308,saint-joseph,-21.3667,55.6167,24.21,70,2,3.94,RE,1659944972
309,husavik,66.0449,-17.3389,11.22,73,47,5.77,IS,1659944973
310,lamlash,55.5336,-5.1296,15.96,81,100,2.01,GB,1659944974
311,kenai,60.5544,-151.2583,14.05,75,75,9.26,US,1659944976
312,luderitz,-26.6481,15.1594,16.83,47,10,2.76,NA,1659944977
313,santiago,-33.4569,-70.6483,7.14,83,0,0.51,CL,1659944401
314,pochutla,15.7432,-96.4661,23.79,91,99,1.95,MX,1659944978
315,anadyr,64.75,177.4833,8.28,61,0,7,RU,1659944980
316,san cristobal,7.7669,-72.225,18.04,96,51,1.04,VE,1659944981
317,buchanan,5.8808,-10.0467,23.58,81,98,2.08,LR,1659944982
318,owando,-0.4819,15.8999,30.14,48,18,2.33,CG,1659944983
319,ostrovnoy,68.0531,39.5131,15.1,57,36,4.84,RU,1659944984
320,santa helena de goias,-17.8136,-50.5969,22.67,41,52,2.18,BR,1659944927
321,oda,35.1833,132.5,31.43,78,100,4.93,JP,1659944985
322,bambanglipuro,-7.95,110.2833,26.66,72,72,5.01,ID,1659944987
323,byron bay,-28.65,153.6167,15.52,70,1,6.28,AU,1659944791
324,batemans bay,-35.7167,150.1833,12.83,81,14,2.34,AU,1659944990
325,odweyne,9.4092,45.064,26.12,41,63,11.22,SO,1659944991
326,fairbanks,64.8378,-147.7164,12,82,100,1.54,US,1659944824
327,maceio,-9.6658,-35.7353,20.69,94,75,3.09,BR,1659944837
328,manokwari,-0.8667,134.0833,27.9,70,29,1.87,ID,1659944995
329,novyy urengoy,66.0833,76.6333,29.43,34,0,5.31,RU,1659944996
330,tauranga,-37.6861,176.1667,13.81,86,95,2.31,NZ,1659944997
331,constitucion,-35.3333,-72.4167,7.03,87,0,3.14,CL,1659944756
332,mackay,-21.15,149.2,17.6,56,0,5.06,AU,1659944999
333,mount isa,-20.7333,139.5,22.87,15,0,4.63,AU,1659945000
334,la rioja,42.25,-2.5,18.88,51,0,2.04,ES,1659945001
335,corrales,35.2378,-106.6067,22.6,65,100,4.12,US,1659945002
336,sfantu gheorghe,45.8667,25.7833,26.63,51,17,1.29,RO,1659944706
337,xuddur,4.1213,43.8894,28.89,36,15,10.52,SO,1659945005
338,sydney,-33.8679,151.2073,14.28,69,20,8.75,AU,1659944871
339,sandwick,60,-1.25,12.9,100,75,8.75,GB,1659945009
340,lar,26.2039,83.9717,38.6,37,48,6.61,IN,1659945010
341,bilma,18.6853,12.9164,33.29,40,98,2.04,NE,1659945012
342,sambava,-14.2667,50.1667,23.85,68,3,5.77,MG,1659945013
343,shatsk,54.0258,41.7119,25.74,44,57,1.98,RU,1659945014
344,verkhnyaya inta,65.9811,60.3094,28.14,36,7,8.19,RU,1659945015
345,buritis,-15.6178,-46.4233,19.92,44,15,0.61,BR,1659945016
346,raudeberg,61.9875,5.1352,14.42,70,50,7.78,NO,1659945018
347,rong kwang,18.339,100.3174,25.71,96,100,0.86,TH,1659945020
348,sao miguel do araguaia,-13.275,-50.1628,24.68,38,77,1.69,BR,1659945020
349,tessalit,20.1986,1.0114,35.22,12,35,2.18,ML,1659945022
350,ouadda,8.0777,22.4007,24.6,72,71,2.44,CF,1659945023
351,sao joao da barra,-21.6403,-41.0511,20.68,94,66,2.09,BR,1659945024
352,adrar,20.5022,-10.0711,34.13,31,5,5.42,MR,1659945025
353,kambove,-10.8764,26.5969,20.89,35,30,4.17,CD,1659945026
354,los llanos de aridane,28.6585,-17.9182,19.86,78,20,6.17,ES,1659945027
355,kutum,14.2,24.6667,27.21,48,95,1.47,SD,1659945028
356,sayan,-11.1361,-77.1933,17.75,64,63,0.59,PE,1659945029
357,bontang,0.1333,117.5,28.36,73,93,5.1,ID,1659945030
358,saint anthony,45.0205,-93.218,15.48,94,100,5.14,US,1659945031
359,tommot,58.9564,126.2925,14.51,96,100,2.48,RU,1659945032
360,corinto,37.9407,22.9573,29.38,39,0,10.12,GR,1659945033
361,pisco,-13.7,-76.2167,15.03,77,40,1.54,PE,1659945034
362,monrovia,6.3005,-10.7969,23.87,82,100,3.42,LR,1659945031
363,bima,-8.4667,118.7167,30.3,55,52,2.16,ID,1659945037
364,narsaq,60.9167,-46.05,6.4,61,29,2.01,GL,1659945037
365,gushikawa,26.3544,127.8686,33,66,20,4.12,JP,1659945038
366,rawson,-43.3002,-65.1023,6.55,88,100,0.57,AR,1659944916
367,makinsk,52.6292,70.4169,21.49,46,42,5.54,KZ,1659945041
368,podkletnoye,51.5899,39.4623,27.29,36,99,1.94,RU,1659945042
369,jaru,-10.4389,-62.4664,22.06,91,93,0.98,BR,1659945043
370,novyy yegorlyk,46.3927,41.8716,33.99,15,1,6.25,RU,1659945044
371,mana,5.6592,-53.7767,23.61,86,29,3.11,GF,1659945045
372,dingle,10.9995,122.6711,26.06,87,100,1.12,PH,1659945046
373,gillette,44.2911,-105.5022,11.51,82,0,3.09,US,1659945010
374,kyshtovka,56.555,76.6271,23.38,51,43,4.91,RU,1659945048
375,mandalgovi,45.7625,106.2708,25.3,37,20,4.98,MN,1659945049
376,naryan-mar,67.6713,53.087,18.92,46,63,8.15,RU,1659945049
377,le vauclin,14.5452,-60.8388,27.69,94,75,3.09,MQ,1659945051
378,hobyo,5.3505,48.5268,27.91,60,16,11.71,SO,1659945052
379,hamilton,39.1834,-84.5333,23.76,93,0,3.6,US,1659945053
380,port moresby,-9.4431,147.1797,28.68,70,40,9.77,PG,1659945040
381,tandil,-37.3217,-59.1332,3.16,96,19,2.22,AR,1659944969
382,banff,51.1762,-115.5698,20.57,48,0,1.54,CA,1659945049
383,tiznit,29.5833,-9.5,24.97,39,0,1.7,MA,1659945056
384,baicheng,45.6167,122.8167,25.44,43,0,6.07,CN,1659945057
385,tiarei,-17.5333,-149.3333,22.78,70,29,11.68,PF,1659945059
386,santa isabel,-23.3156,-46.2214,15.61,97,100,1.1,BR,1659945060
387,sitka,57.0531,-135.33,12.94,88,75,1.54,US,1659945061
388,chimbarongo,-34.7,-71.05,3.49,72,0,1.4,CL,1659945062
389,qui nhon,13.7667,109.2333,26.98,81,100,4.29,VN,1659944765
390,nanortalik,60.1432,-45.2371,6.69,81,100,3,GL,1659945064
391,requena,39.4883,-1.1004,23.62,35,0,1.29,ES,1659944781
392,inuvik,68.3499,-133.7218,11.42,79,40,3.6,CA,1659945066
393,ixtapa,20.7,-105.2,25.13,87,100,1.03,MX,1659945067
394,osterburg,52.7833,11.7667,21.74,41,0,2.06,DE,1659945068
395,belyy yar,53.6039,91.3903,27.7,27,0,3,RU,1659945069
396,barabinsk,55.3571,78.357,19.65,66,94,4.7,RU,1659945070
397,padang,-0.9492,100.3543,31.03,64,26,2.47,ID,1659945071
398,hellvik,59.9156,5.781,13.76,94,91,1.34,NO,1659945071
399,jeremie,18.65,-74.1167,27.04,76,37,0.44,HT,1659945072
400,dubbo,-32.25,148.6167,12.07,62,40,4.63,AU,1659945073
401,kyzyl-suu,42.3414,78.0056,23.02,49,3,4.3,KG,1659945074
402,golcuv jenikov,49.8163,15.4769,20.73,58,0,1.34,CZ,1659945075
403,dumas,35.8656,-101.9732,24.74,60,0,2.57,US,1659945076
404,imeni poliny osipenko,52.4201,136.4853,13.04,94,100,1.4,RU,1659945077
405,teya,60.3778,92.6267,23.43,41,8,1.42,RU,1659945078
406,sal rei,16.1833,-22.9167,25.11,94,75,2.06,CV,1659945079
407,ponta delgada,37.7333,-25.6667,22.4,83,75,1.54,PT,1659944804
408,erzin,36.9559,36.2,27.78,71,88,3.04,TR,1659945081
409,rio grande,-32.035,-52.0986,11.64,77,97,6.27,BR,1659945082
410,yar-sale,66.8333,70.8333,29.54,35,0,6.26,RU,1659945083
411,sangar,63.9242,127.4739,19.46,58,21,1.78,RU,1659945084
412,atoyac,20.0167,-103.5333,16.62,96,98,1.12,MX,1659945085
413,san vicente,-26.6167,-54.1333,13.34,100,100,0.83,AR,1659944979
414,magadi,12.9667,77.2333,23.09,89,100,7.08,IN,1659945087
415,baruun-urt,46.6806,113.2792,24.16,25,0,6.23,MN,1659945088
416,bitam,2.076,11.5007,22.13,86,100,1.84,GA,1659945089
417,praia da vitoria,38.7333,-27.0667,23.2,94,20,4.98,PT,1659945090
418,cidreira,-30.1811,-50.2056,14.52,90,100,8.1,BR,1659945091
419,lewisporte,49.2499,-55.0482,21.84,63,100,4.74,CA,1659945092
420,abu dhabi,24.4667,54.3667,43.06,43,0,3.09,AE,1659944824
421,camana,-16.6228,-72.7111,14.71,85,61,3.74,PE,1659945094
422,wenling,28.3669,121.36,30.53,71,14,5.53,CN,1659945095
423,petropavlovsk-kamchatskiy,53.0452,158.6483,15.33,77,20,6,RU,1659945095
424,the valley,18.217,-63.0578,27.83,82,100,10.35,AI,1659945004
425,svetlaya,46.5389,138.3297,22.76,92,92,2.13,RU,1659945097
426,jalu,29.0331,21.5482,30.92,35,0,2.57,LY,1659945098
427,westport,41.1415,-73.3579,26.9,88,0,3.6,US,1659945100
428,lapua,62.9693,23.0088,17.84,65,48,2.74,FI,1659945101
429,potam,27.6,-110.3833,29.16,71,65,2.41,MX,1659945102
430,zhangzhou,24.5133,117.6556,32.96,56,51,2.7,CN,1659945103
431,kudahuvadhoo,2.6708,72.8944,27.74,77,97,4.45,MV,1659945104
432,nouakchott,18.0858,-15.9785,25.96,83,3,4.24,MR,1659944994
433,poum,-20.2333,164.0167,23.64,76,1,8.42,NC,1659945106
434,naze,28.3667,129.4833,30.51,70,8,3.23,JP,1659945107
435,puerto ayacucho,5.6639,-67.6236,23.22,93,72,1.3,VE,1659945108
436,chifeng,42.2683,118.9636,28.17,27,100,0.87,CN,1659945110
437,lebyazhye,55.2689,66.4947,23.92,51,100,5.9,RU,1659945111
438,lucera,41.5082,15.3351,24.9,39,9,4.31,IT,1659945112
439,kampong thum,12.7111,104.8887,23.87,90,100,5.78,KH,1659944917
440,humaita,-7.5061,-63.0208,22.61,91,44,0.69,BR,1659945114
441,flin flon,54.7682,-101.865,14.92,87,7,2.59,CA,1659945115
442,touros,-5.1989,-35.4608,22.09,87,0,5.42,BR,1659945117
443,severnyy,50.677,36.5532,28.02,42,0,2,RU,1659945118
444,bandarbeyla,9.4942,50.8122,30.79,46,5,12.29,SO,1659945119
445,lyuban,52.7985,28.0048,19.59,55,63,2.59,BY,1659945121
446,dulyapino,57.2578,40.8147,17.7,86,99,2.92,RU,1659945122
447,kompaniyivka,48.2511,32.208,29.88,32,2,3.92,UA,1659945123
448,ndele,8.4109,20.6473,24.6,74,63,2.39,CF,1659945124
449,tibati,6.4667,12.6333,21.73,85,100,0.95,CM,1659945125
450,dauriya,49.9333,116.8667,22.42,32,6,9.49,RU,1659945126
451,nouadhibou,20.931,-17.0347,21.99,94,89,3.6,MR,1659945127
452,laguna,38.421,-121.4238,21.21,74,0,3.6,US,1659945128
453,cherskiy,68.75,161.3,11.84,50,80,1.91,RU,1659945129
454,puerto quijarro,-17.7833,-57.7667,20.57,98,83,0.75,BO,1659945130
455,high level,58.5169,-117.136,13.21,95,100,3.25,CA,1659945131
456,jizan,17.3333,42.6667,33.52,54,92,1.87,SA,1659945132
457,riyadh,24.6877,46.7219,42.08,14,37,3.97,SA,1659945133
458,olafsvik,64.8945,-23.7142,10.36,80,100,11.65,IS,1659945134
459,nhulunbuy,-12.2333,136.7667,26.34,73,28,6.69,AU,1659945135
460,sulphur springs,33.1385,-95.6011,28.97,58,0,4.12,US,1659945136
461,road town,18.4167,-64.6167,28.05,78,10,9.7,VG,1659945137
462,saint-augustin,51.226,-58.6502,13.52,66,15,6.71,CA,1659945138
463,nelson bay,-32.7167,152.15,15.56,83,4,4.92,AU,1659945139
464,pinerovka,51.562,43.0689,31.49,25,26,2.65,RU,1659945140
465,novonukutskiy,53.7002,102.7117,23.04,46,0,0.71,RU,1659945141
466,emilio carranza,19.9711,-96.6114,24.07,81,36,1.97,MX,1659945142
467,talnakh,69.4865,88.3972,21.12,70,75,0.97,RU,1659945143
468,kloulklubed,7.0419,134.2556,28.42,72,100,5.37,PW,1659945145
469,margate,51.3813,1.3862,21.06,70,12,3.2,GB,1659944900
470,charters towers,-20.1,146.2667,19.97,36,0,4.82,AU,1659945146
471,malvern,34.3623,-92.813,26.98,87,89,1.44,US,1659945147
472,chapais,49.7834,-74.8492,8.88,80,72,1.95,CA,1659945148
473,horsham,51.064,-0.3272,21.85,63,0,1.03,GB,1659945149
474,ormara,25.2088,64.6357,28.02,82,28,5.19,PK,1659945150
475,lima,-12.0432,-77.0282,14.14,82,100,2.06,PE,1659944604
476,katubao,5.8892,124.8294,27.99,89,100,0.9,PH,1659945152
477,valdivia,-39.8142,-73.2459,7.05,98,93,0.91,CL,1659945153
478,mugur-aksy,50.35,90.5,17.82,41,96,0.6,RU,1659945154
479,poya,-21.35,165.15,21.06,88,32,3.37,NC,1659945155
480,huejuquilla el alto,22.6,-103.8667,15.83,82,100,0.97,MX,1659945156
481,bara,10.3744,10.7288,22.78,91,100,3.07,NG,1659945157
482,nampula,-15.1165,39.2666,21.97,56,0,3.13,MZ,1659945158
483,sechura,-5.5569,-80.8222,16.5,87,9,5.11,PE,1659945159
484,badvel,14.75,79.05,31.05,61,100,10.9,IN,1659945159
485,barbastro,42.0356,0.1269,26.3,47,22,0.16,ES,1659945160
486,sao jose da coroa grande,-8.8978,-35.1478,24.16,64,100,4.02,BR,1659945161
487,vrangel,42.7297,133.0839,25.58,75,34,4.55,RU,1659945162
488,bamako,12.65,-8,26.23,100,40,1.54,ML,1659945163
489,wajima,37.4,136.9,31.38,70,75,7.2,JP,1659945164
490,north myrtle beach,33.816,-78.68,25.06,90,100,0,US,1659945165
491,senekal,-28.3197,27.6208,11.59,41,0,5.21,ZA,1659945166
492,karatau,43.1667,70.4667,33.45,18,74,8.49,KZ,1659945167
493,popondetta,-8.7537,148.2534,25.03,79,42,1.25,PG,1659945168
494,villa bruzual,9.3328,-69.1208,21.96,96,42,0.92,VE,1659945169
495,pagudpud,18.5616,120.7868,27.39,83,100,3.08,PH,1659945170
496,bonfim,3.0833,-59.95,23.84,80,40,1.88,BR,1659945171
497,kishorganj,24.4333,90.7667,33.92,58,46,4.63,BD,1659945172
498,howard springs,-12.497,131.047,32.77,56,3,3.56,AU,1659945174
499,seydi,39.4816,62.9137,35.46,12,2,5.9,TM,1659945175
500,manzhouli,49.6,117.4333,22.43,31,5,9.98,CN,1659945176
501,todos santos,23.45,-110.2167,25.92,90,100,2,MX,1659945178
502,calabozo,8.9242,-67.4293,22.62,93,21,1.58,VE,1659945179
503,atasu,48.6814,71.6433,26.8,26,85,4.87,KZ,1659945180
504,santa isabel do rio negro,-0.4139,-65.0192,22.49,89,19,0.44,BR,1659945181
505,nyazepetrovsk,56.0531,59.6028,27.63,41,60,2.64,RU,1659945182
506,sao felix do xingu,-6.6447,-51.995,22.2,74,63,0.22,BR,1659945184
507,trinidad,-14.8333,-64.9,20.82,97,96,0.56,BO,1659945185
508,faya,18.3851,42.4509,25.29,53,61,1.37,SA,1659945186
509,chase,50.8165,-119.6857,20.18,64,0,0.88,CA,1659945178
510,great yarmouth,52.6083,1.7305,20.79,67,7,3.09,GB,1659945188
511,asau,46.4333,26.4,25.53,69,20,2.14,RO,1659945189
512,chernyshevskiy,63.0128,112.4714,16.36,58,62,0.64,RU,1659945190
513,calvinia,-31.4707,19.776,8.9,87,20,4.12,ZA,1659945191
514,jaque,7.5175,-78.1703,25.04,89,79,0.52,PA,1659945193
515,cranbrook,49.4999,-115.7688,19.91,45,0,2.06,CA,1659945101
516,borujerd,33.8973,48.7516,34.13,18,0,0,IR,1659945195
517,ca mau,9.1769,105.15,29.71,65,99,4.68,VN,1659945196
518,bushehr,28.9684,50.8385,38.05,44,0,3.09,IR,1659945197
519,vangaindrano,-23.35,47.6,23.23,68,1,0.94,MG,1659945198
520,aden,12.7794,45.0367,29.82,74,88,9.69,YE,1659945199
521,swan hill,-35.3378,143.5544,9.9,58,5,2.85,AU,1659945107
522,tautira,-17.7333,-149.15,24.07,68,87,10.28,PF,1659945201
523,hay river,60.8156,-115.7999,11.99,94,91,0,CA,1659945202
524,mayo,38.8876,-76.5119,27.06,90,0,2.57,US,1659945204
525,hwange,-18.3693,26.5019,22.9,28,0,2.35,ZW,1659945205
526,vojens,55.2464,9.306,17.76,82,75,1.54,DK,1659945086
527,umm lajj,25.0213,37.2685,33.36,62,52,6.24,SA,1659945206
528,livno,43.8269,17.0078,28.2,45,1,2.18,BA,1659945207
529,boa vista,2.8197,-60.6733,26.99,78,40,0.51,BR,1659945208
530,kikwit,-5.041,18.8162,31.57,31,96,0.83,CD,1659945209
531,kpandu,6.9954,0.2931,23.17,80,99,3.41,GH,1659945210
532,duku,11.2361,4.9073,25.14,82,93,4.37,NG,1659945211
533,dandong,40.1292,124.3947,28.8,73,88,4.39,CN,1659945212
534,banyo,6.75,11.8167,22.24,79,100,1.37,CM,1659945214
535,krabi,8.0726,98.9105,33.11,66,40,3.6,TH,1659945215
536,huarmey,-10.0681,-78.1522,16.08,86,72,3.94,PE,1659945216
537,sainte-agathe-des-monts,46.0501,-74.2825,15.12,96,100,2.52,CA,1659945217
538,shimoda,34.6667,138.95,30.2,81,82,5.42,JP,1659945218
539,simao,22.7886,100.9748,23.68,81,94,0.49,CN,1659945218
540,parksville,49.3163,-124.3195,21.8,82,0,9.26,CA,1659945219
541,antsohihy,-14.8796,47.9875,31.08,24,0,2.5,MG,1659945221
542,solnechnyy,50.7214,136.6319,16.8,98,92,0.97,RU,1659945221
543,vammala,61.3333,22.9,17.39,45,69,0.83,FI,1659945222
544,ambilobe,-13.2,49.05,32.04,26,2,1,MG,1659945223
545,calabar,4.9517,8.322,24.24,91,100,0.87,NG,1659945224
546,vieques,18.425,-65.8329,28.01,78,40,5.66,PR,1659945225
547,vallenar,-28.5708,-70.7581,12.56,46,87,2.31,CL,1659945226
548,tartus,34.889,35.8866,28.39,59,0,5.57,SY,1659945227
549,salinas,36.6777,-121.6555,17.29,79,0,3.09,US,1659945082
550,itarema,-2.9248,-39.9167,23.74,86,4,6.88,BR,1659945229
